$GPRMC,225517.042,A,5002.16047,N,04502.10824,E,10.00,32.1,140411,0.0,E*57
$GPGLL,5002.16518,N,04502.11284,E,225519.039,A*37
$GPGLL,5002.16752,N,04502.11512,E,225520.042,A*35
$GPGLL,5002.17224,N,04502.11972,E,225522.044,A*3E
$GPGLL,5002.17224,N,04502.11972,E,225522.044,A*3E
$GPRMC,225652.087,A,5002.38401,N,04502.32659,E,10.00,32.1,140411,0.0,E*52
$GPRMC,225652.087,A,5002.38401,N,04502.32659,E,10.00,32.1,140411,0.0,E*52
$GPRMC,225652.087,A,5002.38401,N,04502.32659,E,10.00,32.1,140411,0.0,E*52
$GPRMC,225652.087,A,5002.38401,N,04502.32659,E,10.00,32.1,140411,0.0,E*52
$GPRMC,225652.087,A,5002.38401,N,04502.32659,E,10.00,32.1,140411,0.0,E*52
$GPRMC,225652.087,A,5002.38401,N,04502.32659,E,10.00,32.1,140411,0.0,E*52
$GPRMC,225652.087,A,5002.38401,N,04502.32659,E,10.00,32.1,140411,0.0,E*52
$GPRMC,225652.087,A,5002.38401,N,04502.32659,E,10.00,32.1,140411,0.0,E*52
$GPRMC,225652.087,A,5002.38401,N,04502.32659,E,10.00,32.1,140411,0.0,E*52
$GPRMC,225653.074,A,5002.38636,N,04502.32889,E,10.00,32.1,140411,0.0,E*5A
$GPRMC,225653.074,A,5002.38636,N,04502.32889,E,10.00,32.1,140411,0.0,E*5A
$GPRMC,225653.074,A,5002.38636,N,04502.32889,E,10.00,32.1,140411,0.0,E*5A
$GPRMC,225653.074,A,5002.38636,N,04502.32889,E,10.00,32.1,140411,0.0,E*5A
$GPRMC,225653.074,A,5002.38636,N,04502.32889,E,10.00,32.1,140411,0.0,E*5A
$GPRMC,225653.074,A,5002.38636,N,04502.32889,E,10.00,32.1,140411,0.0,E*5A
$GPRMC,225653.074,A,5002.38636,N,04502.32889,E,10.00,32.1,140411,0.0,E*5A
$GPRMC,225653.074,A,5002.38636,N,04502.32889,E,10.00,32.1,140411,0.0,E*5A
$GPRMC,225653.074,A,5002.38636,N,04502.32889,E,10.00,32.1,140411,0.0,E*5A
$GPRMC,225654.074,A,5002.38873,N,04502.33119,E,10.00,32.1,140411,0.0,E*53
$GPRMC,225654.074,A,5002.38873,N,04502.33119,E,10.00,32.1,140411,0.0,E*53
$GPRMC,225654.074,A,5002.38873,N,04502.33119,E,10.00,32.1,140411,0.0,E*53
$GPRMC,225654.074,A,5002.38873,N,04502.33119,E,10.00,32.1,140411,0.0,E*53
$GPRMC,225654.074,A,5002.38873,N,04502.33119,E,10.00,32.1,140411,0.0,E*53
$GPRMC,225654.074,A,5002.38873,N,04502.33119,E,10.00,32.1,140411,0.0,E*53
$GPRMC,225654.074,A,5002.38873,N,04502.33119,E,10.00,32.1,140411,0.0,E*53
$GPRMC,225654.074,A,5002.38873,N,04502.33119,E,10.00,32.1,140411,0.0,E*53
$GPRMC,225654.074,A,5002.38873,N,04502.33119,E,10.00,32.1,140411,0.0,E*53
$GPRMC,225655.074,A,5002.39107,N,04502.33348,E,10.00,32.1,140411,0.0,E*5F
$GPRMC,225655.074,A,5002.39107,N,04502.33348,E,10.00,32.1,140411,0.0,E*5F
$GPRMC,225655.074,A,5002.39107,N,04502.33348,E,10.00,32.1,140411,0.0,E*5F
$GPRMC,225655.074,A,5002.39107,N,04502.33348,E,10.00,32.1,140411,0.0,E*5F
$GPRMC,225655.074,A,5002.39107,N,04502.33348,E,10.00,32.1,140411,0.0,E*5F
$GPRMC,225655.074,A,5002.39107,N,04502.33348,E,10.00,32.1,140411,0.0,E*5F
$GPRMC,225655.074,A,5002.39107,N,04502.33348,E,10.00,32.1,140411,0.0,E*5F
$GPRMC,225655.074,A,5002.39107,N,04502.33348,E,10.00,32.1,140411,0.0,E*5F
$GPRMC,225655.074,A,5002.39107,N,04502.33348,E,10.00,32.1,140411,0.0,E*5F
$GPRMC,225656.074,A,5002.39343,N,04502.33577,E,10.00,32.1,140411,0.0,E*54
$GPRMC,225656.074,A,5002.39343,N,04502.33577,E,10.00,32.1,140411,0.0,E*54
$GPRMC,225656.074,A,5002.39343,N,04502.33577,E,10.00,32.1,140411,0.0,E*54
$GPRMC,225656.074,A,5002.39343,N,04502.33577,E,10.00,32.1,140411,0.0,E*54
$GPRMC,225656.074,A,5002.39343,N,04502.33577,E,10.00,32.1,140411,0.0,E*54
$GPRMC,225656.074,A,5002.39343,N,04502.33577,E,10.00,32.1,140411,0.0,E*54
$GPRMC,225656.074,A,5002.39343,N,04502.33577,E,10.00,32.1,140411,0.0,E*54
$GPRMC,225656.074,A,5002.39343,N,04502.33577,E,10.00,32.1,140411,0.0,E*54
$GPRMC,225656.074,A,5002.39343,N,04502.33577,E,10.00,32.1,140411,0.0,E*54
$GPRMC,225657.074,A,5002.39578,N,04502.33807,E,10.00,32.1,140411,0.0,E*51
$GPRMC,225657.074,A,5002.39578,N,04502.33807,E,10.00,32.1,140411,0.0,E*51
$GPRMC,225657.074,A,5002.39578,N,04502.33807,E,10.00,32.1,140411,0.0,E*51
$GPRMC,225657.074,A,5002.39578,N,04502.33807,E,10.00,32.1,140411,0.0,E*51
$GPRMC,225657.074,A,5002.39578,N,04502.33807,E,10.00,32.1,140411,0.0,E*51
$GPRMC,225657.074,A,5002.39578,N,04502.33807,E,10.00,32.1,140411,0.0,E*51
$GPRMC,225657.074,A,5002.39578,N,04502.33807,E,10.00,32.1,140411,0.0,E*51
$GPRMC,225657.074,A,5002.39578,N,04502.33807,E,10.00,32.1,140411,0.0,E*51
$GPRMC,225657.074,A,5002.39578,N,04502.33807,E,10.00,32.1,140411,0.0,E*51
$GPRMC,225658.074,A,5002.39812,N,04502.34037,E,10.00,32.1,140411,0.0,E*53
$GPRMC,225658.074,A,5002.39812,N,04502.34037,E,10.00,32.1,140411,0.0,E*53
$GPRMC,225658.074,A,5002.39812,N,04502.34037,E,10.00,32.1,140411,0.0,E*53
$GPRMC,225658.074,A,5002.39812,N,04502.34037,E,10.00,32.1,140411,0.0,E*53
$GPRMC,225658.074,A,5002.39812,N,04502.34037,E,10.00,32.1,140411,0.0,E*53
$GPRMC,225658.074,A,5002.39812,N,04502.34037,E,10.00,32.1,140411,0.0,E*53
$GPRMC,225658.074,A,5002.39812,N,04502.34037,E,10.00,32.1,140411,0.0,E*53
$GPRMC,225658.074,A,5002.39812,N,04502.34037,E,10.00,32.1,140411,0.0,E*53
$GPRMC,225658.074,A,5002.39812,N,04502.34037,E,10.00,32.1,140411,0.0,E*53
$GPRMC,225659.074,A,5002.40048,N,04502.34267,E,10.00,32.1,140411,0.0,E*5C
$GPRMC,225659.074,A,5002.40048,N,04502.34267,E,10.00,32.1,140411,0.0,E*5C
$GPRMC,225659.074,A,5002.40048,N,04502.34267,E,10.00,32.1,140411,0.0,E*5C
$GPRMC,225659.074,A,5002.40048,N,04502.34267,E,10.00,32.1,140411,0.0,E*5C
$GPRMC,225659.074,A,5002.40048,N,04502.34267,E,10.00,32.1,140411,0.0,E*5C
$GPRMC,225659.074,A,5002.40048,N,04502.34267,E,10.00,32.1,140411,0.0,E*5C
$GPRMC,225659.074,A,5002.40048,N,04502.34267,E,10.00,32.1,140411,0.0,E*5C
$GPRMC,225659.074,A,5002.40048,N,04502.34267,E,10.00,32.1,140411,0.0,E*5C
$GPRMC,225659.074,A,5002.40048,N,04502.34267,E,10.00,32.1,140411,0.0,E*5C
$GPRMC,225700.074,A,5002.40284,N,04502.34497,E,10.00,32.1,140411,0.0,E*5A
$GPRMC,225700.074,A,5002.40284,N,04502.34497,E,10.00,32.1,140411,0.0,E*5A
$GPRMC,225700.074,A,5002.40284,N,04502.34497,E,10.00,32.1,140411,0.0,E*5A
$GPRMC,225700.074,A,5002.40284,N,04502.34497,E,10.00,32.1,140411,0.0,E*5A
$GPRMC,225700.074,A,5002.40284,N,04502.34497,E,10.00,32.1,140411,0.0,E*5A
$GPRMC,225700.074,A,5002.40284,N,04502.34497,E,10.00,32.1,140411,0.0,E*5A
$GPRMC,225700.074,A,5002.40284,N,04502.34497,E,10.00,32.1,140411,0.0,E*5A
$GPRMC,225700.074,A,5002.40284,N,04502.34497,E,10.00,32.1,140411,0.0,E*5A
$GPRMC,225700.074,A,5002.40284,N,04502.34497,E,10.00,32.1,140411,0.0,E*5A
$GPRMC,225701.074,A,5002.40519,N,04502.34727,E,10.00,32.1,140411,0.0,E*50
$GPRMC,225701.074,A,5002.40519,N,04502.34727,E,10.00,32.1,140411,0.0,E*50
$GPRMC,225701.074,A,5002.40519,N,04502.34727,E,10.00,32.1,140411,0.0,E*50
$GPRMC,225701.074,A,5002.40519,N,04502.34727,E,10.00,32.1,140411,0.0,E*50
$GPRMC,225701.074,A,5002.40519,N,04502.34727,E,10.00,32.1,140411,0.0,E*50
$GPRMC,225701.074,A,5002.40519,N,04502.34727,E,10.00,32.1,140411,0.0,E*50
$GPRMC,225701.074,A,5002.40519,N,04502.34727,E,10.00,32.1,140411,0.0,E*50
$GPRMC,225701.074,A,5002.40519,N,04502.34727,E,10.00,32.1,140411,0.0,E*50
$GPRMC,225701.074,A,5002.40519,N,04502.34727,E,10.00,32.1,140411,0.0,E*50
$GPRMC,225702.074,A,5002.40754,N,04502.34957,E,10.00,32.1,140411,0.0,E*51
$GPRMC,225702.074,A,5002.40754,N,04502.34957,E,10.00,32.1,140411,0.0,E*51
$GPRMC,225702.074,A,5002.40754,N,04502.34957,E,10.00,32.1,140411,0.0,E*51
$GPRMC,225702.074,A,5002.40754,N,04502.34957,E,10.00,32.1,140411,0.0,E*51
$GPRMC,225702.074,A,5002.40754,N,04502.34957,E,10.00,32.1,140411,0.0,E*51
$GPRMC,225702.074,A,5002.40754,N,04502.34957,E,10.00,32.1,140411,0.0,E*51
$GPRMC,225702.074,A,5002.40754,N,04502.34957,E,10.00,32.1,140411,0.0,E*51
$GPRMC,225702.074,A,5002.40754,N,04502.34957,E,10.00,32.1,140411,0.0,E*51
$GPRMC,225702.074,A,5002.40754,N,04502.34957,E,10.00,32.1,140411,0.0,E*51
$GPRMC,225703.074,A,5002.40989,N,04502.35188,E,10.00,32.1,140411,0.0,E*55
$GPRMC,225703.074,A,5002.40989,N,04502.35188,E,10.00,32.1,140411,0.0,E*55
$GPRMC,225703.074,A,5002.40989,N,04502.35188,E,10.00,32.1,140411,0.0,E*55
$GPRMC,225703.074,A,5002.40989,N,04502.35188,E,10.00,32.1,140411,0.0,E*55
$GPRMC,225703.074,A,5002.40989,N,04502.35188,E,10.00,32.1,140411,0.0,E*55
$GPRMC,225703.074,A,5002.40989,N,04502.35188,E,10.00,32.1,140411,0.0,E*55
$GPRMC,225703.074,A,5002.40989,N,04502.35188,E,10.00,32.1,140411,0.0,E*55
$GPRMC,225703.074,A,5002.40989,N,04502.35188,E,10.00,32.1,140411,0.0,E*55
$GPRMC,225703.074,A,5002.40989,N,04502.35188,E,10.00,32.1,140411,0.0,E*55
$GPRMC,225704.075,A,5002.41224,N,04502.35418,E,10.00,32.1,140411,0.0,E*52
$GPRMC,225704.075,A,5002.41224,N,04502.35418,E,10.00,32.1,140411,0.0,E*52
$GPRMC,225704.075,A,5002.41224,N,04502.35418,E,10.00,32.1,140411,0.0,E*52
$GPRMC,225704.075,A,5002.41224,N,04502.35418,E,10.00,32.1,140411,0.0,E*52
$GPRMC,225704.075,A,5002.41224,N,04502.35418,E,10.00,32.1,140411,0.0,E*52
$GPRMC,225704.075,A,5002.41224,N,04502.35418,E,10.00,32.1,140411,0.0,E*52
$GPRMC,225704.075,A,5002.41224,N,04502.35418,E,10.00,32.1,140411,0.0,E*52
$GPRMC,225704.075,A,5002.41224,N,04502.35418,E,10.00,32.1,140411,0.0,E*52
$GPRMC,225704.075,A,5002.41224,N,04502.35418,E,10.00,32.1,140411,0.0,E*52
$GPRMC,225705.075,A,5002.41461,N,04502.35648,E,10.00,32.1,140411,0.0,E*53
$GPRMC,225705.075,A,5002.41461,N,04502.35648,E,10.00,32.1,140411,0.0,E*53
$GPRMC,225705.075,A,5002.41461,N,04502.35648,E,10.00,32.1,140411,0.0,E*53
$GPRMC,225705.075,A,5002.41461,N,04502.35648,E,10.00,32.1,140411,0.0,E*53
$GPRMC,225705.075,A,5002.41461,N,04502.35648,E,10.00,32.1,140411,0.0,E*53
$GPRMC,225705.075,A,5002.41461,N,04502.35648,E,10.00,32.1,140411,0.0,E*53
$GPRMC,225705.075,A,5002.41461,N,04502.35648,E,10.00,32.1,140411,0.0,E*53
$GPRMC,225705.075,A,5002.41461,N,04502.35648,E,10.00,32.1,140411,0.0,E*53
$GPRMC,225705.075,A,5002.41461,N,04502.35648,E,10.00,32.1,140411,0.0,E*53
$GPRMC,225706.075,A,5002.41696,N,04502.35878,E,10.00,32.1,140411,0.0,E*57
$GPRMC,225706.075,A,5002.41696,N,04502.35878,E,10.00,32.1,140411,0.0,E*57
$GPRMC,225706.075,A,5002.41696,N,04502.35878,E,10.00,32.1,140411,0.0,E*57
$GPRMC,225706.075,A,5002.41696,N,04502.35878,E,10.00,32.1,140411,0.0,E*57
$GPRMC,225706.075,A,5002.41696,N,04502.35878,E,10.00,32.1,140411,0.0,E*57
$GPRMC,225706.075,A,5002.41696,N,04502.35878,E,10.00,32.1,140411,0.0,E*57
$GPRMC,225706.075,A,5002.41696,N,04502.35878,E,10.00,32.1,140411,0.0,E*57
$GPRMC,225706.075,A,5002.41696,N,04502.35878,E,10.00,32.1,140411,0.0,E*57
$GPRMC,225706.075,A,5002.41696,N,04502.35878,E,10.00,32.1,140411,0.0,E*57
$GPRMC,225706.075,A,5002.41696,N,04502.35878,E,10.00,32.1,140411,0.0,E*57
$GPRMC,225707.076,A,5002.41931,N,04502.36106,E,10.00,32.1,140411,0.0,E*54
$GPRMC,225707.076,A,5002.41931,N,04502.36106,E,10.00,32.1,140411,0.0,E*54
$GPRMC,225707.076,A,5002.41931,N,04502.36106,E,10.00,32.1,140411,0.0,E*54
$GPRMC,225707.076,A,5002.41931,N,04502.36106,E,10.00,32.1,140411,0.0,E*54
$GPRMC,225707.076,A,5002.41931,N,04502.36106,E,10.00,32.1,140411,0.0,E*54
$GPRMC,225707.076,A,5002.41931,N,04502.36106,E,10.00,32.1,140411,0.0,E*54
$GPRMC,225707.076,A,5002.41931,N,04502.36106,E,10.00,32.1,140411,0.0,E*54
$GPRMC,225707.076,A,5002.41931,N,04502.36106,E,10.00,32.1,140411,0.0,E*54
$GPRMC,225708.068,A,5002.42166,N,04502.36336,E,10.00,32.1,140411,0.0,E*5C
$GPRMC,225708.068,A,5002.42166,N,04502.36336,E,10.00,32.1,140411,0.0,E*5C
$GPRMC,225708.068,A,5002.42166,N,04502.36336,E,10.00,32.1,140411,0.0,E*5C
$GPRMC,225708.068,A,5002.42166,N,04502.36336,E,10.00,32.1,140411,0.0,E*5C
$GPRMC,225708.068,A,5002.42166,N,04502.36336,E,10.00,32.1,140411,0.0,E*5C
$GPRMC,225708.068,A,5002.42166,N,04502.36336,E,10.00,32.1,140411,0.0,E*5C
$GPRMC,225708.068,A,5002.42166,N,04502.36336,E,10.00,32.1,140411,0.0,E*5C
$GPRMC,225708.068,A,5002.42166,N,04502.36336,E,10.00,32.1,140411,0.0,E*5C
$GPRMC,225708.068,A,5002.42166,N,04502.36336,E,10.00,32.1,140411,0.0,E*5C
$GPRMC,225709.068,A,5002.42401,N,04502.36566,E,10.00,32.1,140411,0.0,E*5A
$GPRMC,225709.068,A,5002.42401,N,04502.36566,E,10.00,32.1,140411,0.0,E*5A
$GPRMC,225709.068,A,5002.42401,N,04502.36566,E,10.00,32.1,140411,0.0,E*5A
$GPRMC,225709.068,A,5002.42401,N,04502.36566,E,10.00,32.1,140411,0.0,E*5A
$GPRMC,225709.068,A,5002.42401,N,04502.36566,E,10.00,32.1,140411,0.0,E*5A
$GPRMC,225709.068,A,5002.42401,N,04502.36566,E,10.00,32.1,140411,0.0,E*5A
$GPRMC,225709.068,A,5002.42401,N,04502.36566,E,10.00,32.1,140411,0.0,E*5A
$GPRMC,225709.068,A,5002.42401,N,04502.36566,E,10.00,32.1,140411,0.0,E*5A
$GPRMC,225709.068,A,5002.42401,N,04502.36566,E,10.00,32.1,140411,0.0,E*5A
$GPRMC,225710.068,A,5002.42636,N,04502.36796,E,10.00,32.1,140411,0.0,E*59
$GPRMC,225710.068,A,5002.42636,N,04502.36796,E,10.00,32.1,140411,0.0,E*59
$GPRMC,225710.068,A,5002.42636,N,04502.36796,E,10.00,32.1,140411,0.0,E*59
$GPRMC,225710.068,A,5002.42636,N,04502.36796,E,10.00,32.1,140411,0.0,E*59
$GPRMC,225710.068,A,5002.42636,N,04502.36796,E,10.00,32.1,140411,0.0,E*59
$GPRMC,225710.068,A,5002.42636,N,04502.36796,E,10.00,32.1,140411,0.0,E*59
$GPRMC,225710.068,A,5002.42636,N,04502.36796,E,10.00,32.1,140411,0.0,E*59
$GPRMC,225710.068,A,5002.42636,N,04502.36796,E,10.00,32.1,140411,0.0,E*59
$GPRMC,225710.068,A,5002.42636,N,04502.36796,E,10.00,32.1,140411,0.0,E*59
$GPRMC,225710.068,A,5002.42636,N,04502.36796,E,10.00,32.1,140411,0.0,E*59
$GPRMC,225711.069,A,5002.42873,N,04502.37026,E,10.00,32.1,140411,0.0,E*5B
$GPRMC,225711.069,A,5002.42873,N,04502.37026,E,10.00,32.1,140411,0.0,E*5B
$GPRMC,225711.069,A,5002.42873,N,04502.37026,E,10.00,32.1,140411,0.0,E*5B
$GPRMC,225711.069,A,5002.42873,N,04502.37026,E,10.00,32.1,140411,0.0,E*5B
$GPRMC,225711.069,A,5002.42873,N,04502.37026,E,10.00,32.1,140411,0.0,E*5B
$GPRMC,225711.069,A,5002.42873,N,04502.37026,E,10.00,32.1,140411,0.0,E*5B
$GPRMC,225711.069,A,5002.42873,N,04502.37026,E,10.00,32.1,140411,0.0,E*5B
$GPRMC,225711.069,A,5002.42873,N,04502.37026,E,10.00,32.1,140411,0.0,E*5B
