$GPRMC,225517.042,A,5002.16047,N,04502.10824,E,10.00,32.1,140411,0.0,E*57
$GPGLL,5002.16047,N,04502.10824,E,225517.042,A*3B
$GPGGA,225517.042,5002.16047,N,04502.10824,E,1,5,0.0,0.0,M,0.0,M,,*56
$GPVTG,32.1,T,32.1,M,10.00,N,18.52,K*41
$GPRMC,225518.048,A,5002.16282,N,04502.11054,E,10.00,32.1,140411,0.0,E*57
$GPGLL,5002.16282,N,04502.11054,E,225518.048,A*3B
$GPGGA,225518.048,5002.16282,N,04502.11054,E,1,5,0.0,0.0,M,0.0,M,,*56
$GPVTG,32.1,T,32.1,M,10.00,N,18.52,K*41
$GPRMC,225519.039,A,5002ллллллллТ.16518,N,04502.11284,E,10.00,32.1,140411,0.0,E*5B
$GPGLL,5002.16518,N,04502.11284,E,225519.039,A*37
$GPGGA,225519.039,5002.16518,N,04502.11284,E,1,5,0.0,0.0,M,0.0,M,,*5A
$GPVTG,32.1,T,32.1,M,10.00,N,18.52,K*41
$GPGSA,A,3,05,24,17,30,02,,,,,,,,5.6,3.3,4.5*34
$GPGSV,3,1,12,30,72,254,30,05,70,125,39,24,37,083,43,02,36,113,45*7B
$GPGSV,3,2,12,04,32,059,34,01,27,307,00,14,26,256,00,06,24,219,00*7F
$GPGSV,3,3,12,17,22,135,40,25,20,311,31,09,19,159,25,20,08,346,34*7C
$GPRMC,225520.042,A,5002.16ллллллллТ752,N,04502.11512,E,10.00,32.1,140411,0.0,E*59
$GPGLL,5002.16752,N,04502.11512,E,225520.042,A*35
$GPGGA,225520.042,5002.16752,N,04502.11512,E,1,5,0.0,0.0,M,0.0,M,,*58
$GPVTG,32.1,T,32.1,M,10.00,N,18.52,K*41
$GPRMC,225521.043,A,5002.16989,N,04502.11742,E,10.00,32.1,140411,0.0,E*56
$GPGLL,5002.16989,N,04502.11742,E,225521.043,A*3A
$GPGGA,225521.043,5002.16989,N,04502.11742,E,1,5,0.0,0.0,M,0.0,M,,*57
$GPVTG,32.1,T,32.1,M,10.00,N,18.52,K*41
$GPRMC,225522.044,A,5002.17224,N,04502.11972,E,10.0ллллллллТ0,32.1,140411,0.0,E*52
$GPGLL,5002.17224,N,04502.11972,E,225522.044,A*3E
$GPGGA,225522.044,5002.17224,N,04502.11972,E,1,5,0.0,0.0,M,0.0,M,,*53
$GPVTG,32.1,T,32.1,M,10.00,N,18.52,K*41
$GPRMC,225523.047,A,5002.17459,N,04502.12202,E,10.00,32.1,140411,0.0,E*53
$GPGLL,5002.17459,N,04502.12202,E,225523.047,A*3F
$GPGGA,225523.047,5002.17459,N,04502.12202,E,1,5,0.0,0.0,M,0.0,M,,*52
$GPVTG,32.1,T,32.1,M,10.00,N,18.52,K*41
$GPRMC,225652.087,A,5002.38401,N,04502.32659,E,10.00,32.1,140411,0.0,E*52
$GPGLL,5002.38401,N,04502.32659,E,225652.087,A*3E
$GPGGA,225652.087,5002.38401,N,04502.32659,E,1,5,0.0,0.0,M,0.0,M,,*53
$GPVTG,32.1,T,32.1,M,10.00,N,18.52,K*41
$GPRMC,225653.074,A,5002.38636,N,04502.32889,E,10.00,32.1,140411,0.0,E*5A
$GPGLL,5002.38636,N,04502.32889,E,225653.074,A*36
$GPGGA,225653.074,5002.38636,N,04502.32889,E,1,5,0.0,0.0,M,0.0,M,,*5B
$GPVTG,32.1,T,32.1,M,10.00,N,18.52,K*41
$GPRMC,225654.074,A,5002.38873,N,04502.33119,E,10.00,32.1,140411,0.0,E*53
$GPGLL,5002.38873,N,04502.33119,E,225654.074,A*3F
$GPGGA,225654.074,5002.38873,N,04502.33119,E,1,5,0.0,0.0,M,0.0,M,,*52
$GPVTG,32.1,T,32.1,M,10.00,N,18.52,K*41
$GPGSA,A,3,05,24,17,30,02,,,,,,,,5.6,3.3,4.5*34
$GPGSV,3,1,12,30,72,254,30,05,70,125,39,24,37,083,43,02,36,113,45*7B
$GPGSV,3,2,12,04,32,059,34,01,27,307,00,14,26,256,00,06,24,219,00*7F
$GPGSV,3,3,12,17,22,135,40,25,20,311,31,09,19,159,25,20,08,346,34*7C
$GPRMC,225655.074,A,5002.39107,N,04502.33348,E,10.00,32.1,140411,0.0,E*5F
$GPGLL,5002.39107,N,04502.33348,E,225655.074,A*33
$GPGGA,225655.074,5002.39107,N,04502.33348,E,1,5,0.0,0.0,M,0.0,M,,*5E
$GPVTG,32.1,T,32.1,M,10.00,N,18.52,K*41
$GPRMC,225656.074,A,5002.39343,N,04502.33577,E,10.00,32.1,140411,0.0,E*54
$GPGLL,5002.39343,N,04502.33577,E,225656.074,A*38
$GPGGA,225656.074,5002.39343,N,04502.33577,E,1,5,0.0,0.0,M,0.0,M,,*55
$GPVTG,32.1,T,32.1,M,10.00,N,18.52,K*41
$GPRMC,225657.074,A,5002.39578,N,04502.33807,E,10.00,32.1,140411,0.0,E*51
$GPGLL,5002.39578,N,04502.33807,E,225657.074,A*3D
$GPGGA,225657.074,5002.39578,N,04502.33807,E,1,5,0.0,0.0,M,0.0,M,,*50
$GPVTG,32.1,T,32.1,M,10.00,N,18.52,K*41
$GPRMC,225658.074,A,5002.39812,N,04502.34037,E,10.00,32.1,140411,0.0,E*53
$GPGLL,5002.39812,N,04502.34037,E,225658.074,A*3F
$GPGGA,225658.074,5002.39812,N,04502.34037,E,1,5,0.0,0.0,M,0.0,M,,*52
$GPVTG,32.1,T,32.1,M,10.00,N,18.52,K*41
$GPRMC,225659.074,A,5002.40048,N,04502.34267,E,10.00,32.1,140411,0.0,E*5C
$GPGLL,5002.40048,N,04502.34267,E,225659.074,A*30
$GPGGA,225659.074,5002.40048,N,04502.34267,E,1,5,0.0,0.0,M,0.0,M,,*5D
$GPVTG,32.1,T,32.1,M,10.00,N,18.52,K*41
$GPGSA,A,3,05,24,17,30,02,,,,,,,,5.6,3.3,4.5*34
$GPGSV,3,1,12,30,72,254,30,05,70,125,39,24,37,083,43,02,36,113,45*7B
$GPGSV,3,2,12,04,32,059,34,01,27,307,00,14,26,256,00,06,24,219,00*7F
$GPGSV,3,3,12,17,22,135,40,25,20,311,31,09,19,159,25,20,08,346,34*7C
$GPRMC,225700.074,A,5002.40284,N,04502.34497,E,10.00,32.1,140411,0.0,E*5A
$GPGLL,5002.40284,N,04502.34497,E,225700.074,A*36
$GPGGA,225700.074,5002.40284,N,04502.34497,E,1,5,0.0,0.0,M,0.0,M,,*5B
$GPVTG,32.1,T,32.1,M,10.00,N,18.52,K*41
$GPRMC,225701.074,A,5002.40519,N,04502.34727,E,10.00,32.1,140411,0.0,E*50
$GPGLL,5002.40519,N,04502.34727,E,225701.074,A*3C
$GPGGA,225701.074,5002.40519,N,04502.34727,E,1,5,0.0,0.0,M,0.0,M,,*51
$GPVTG,32.1,T,32.1,M,10.00,N,18.52,K*41
$GPRMC,225702.074,A,5002.40754,N,04502.34957,E,10.00,32.1,140411,0.0,E*51
$GPGLL,5002.40754,N,04502.34957,E,225702.074,A*3D
$GPGGA,225702.074,5002.40754,N,04502.34957,E,1,5,0.0,0.0,M,0.0,M,,*50
$GPVTG,32.1,T,32.1,M,10.00,N,18.52,K*41
$GPRMC,225703.074,A,5002.40989,N,04502.35188,E,10.00,32.1,140411,0.0,E*55
$GPGLL,5002.40989,N,04502.35188,E,225703.074,A*39
$GPGGA,225703.074,5002.40989,N,04502.35188,E,1,5,0.0,0.0,M,0.0,M,,*54
$GPVTG,32.1,T,32.1,M,10.00,N,18.52,K*41
$GPRMC,225704.075,A,5002.41224,N,04502.35418,E,10.00,32.1,140411,0.0,E*52
$GPGLL,5002.41224,N,04502.35418,E,225704.075,A*3E
$GPGGA,225704.075,5002.41224,N,04502.35418,E,1,5,0.0,0.0,M,0.0,M,,*53
$GPVTG,32.1,T,32.1,M,10.00,N,18.52,K*41
$GPGSA,A,3,05,24,17,30,02,,,,,,,,5.6,3.3,4.5*34
$GPGSV,3,1,12,30,72,254,30,05,70,125,39,24,37,083,43,02,36,113,45*7B
$GPGSV,3,2,12,04,32,059,34,01,27,307,00,14,26,256,00,06,24,219,00*7F
$GPGSV,3,3,12,17,22,135,40,25,20,311,31,09,19,159,25,20,08,346,34*7C
$GPRMC,225705.075,A,5002.41461,N,04502.35648,E,10.00,32.1,140411,0.0,E*53
$GPGLL,5002.41461,N,04502.35648,E,225705.075,A*3F
$GPGGA,225705.075,5002.41461,N,04502.35648,E,1,5,0.0,0.0,M,0.0,M,,*52
$GPVTG,32.1,T,32.1,M,10.00,N,18.52,K*41
$GPRMC,225706.075,A,5002.41696,N,04502.35878,E,10.00,32.1,140411,0.0,E*57
$GPGLL,5002.41696,N,04502.35878,E,225706.075,A*3B
$GPGGA,225706.075,5002.41696,N,04502.35878,E,1,5,0.0,0.0,M,0.0,M,,*56
$GPVTG,32.1,T,32.1,M,10.00,N,18.52,K*41
$GPRMC,225707.076,A,5002.41931,N,04502.36106,E,10.00,32.1,140411,0.0,E*54
$GPGLL,5002.41931,N,04502.36106,E,225707.076,A*38
$GPGGA,225707.076,5002.41931,N,04502.36106,E,1,5,0.0,0.0,M,0.0,M,,*55
$GPVTG,32.1,T,32.1,M,10.00,N,18.52,K*41
$GPRMC,225708.068,A,5002.42166,N,04502.36336,E,10.00,32.1,140411,0.0,E*5C
$GPGLL,5002.42166,N,04502.36336,E,225708.068,A*30
$GPGGA,225708.068,5002.42166,N,04502.36336,E,1,5,0.0,0.0,M,0.0,M,,*5D
$GPVTG,32.1,T,32.1,M,10.00,N,18.52,K*41
$GPRMC,225709.068,A,5002.42401,N,04502.36566,E,10.00,32.1,140411,0.0,E*5A
$GPGLL,5002.42401,N,04502.36566,E,225709.068,A*36
$GPGGA,225709.068,5002.42401,N,04502.36566,E,1,5,0.0,0.0,M,0.0,M,,*5B
$GPVTG,32.1,T,32.1,M,10.00,N,18.52,K*41
$GPGSA,A,3,05,24,17,30,02,,,,,,,,5.6,3.3,4.5*34
$GPGSV,3,1,12,30,72,254,30,05,70,125,39,24,37,083,43,02,36,113,45*7B
$GPGSV,3,2,12,04,32,059,34,01,27,307,00,14,26,256,00,06,24,219,00*7F
$GPGSV,3,3,12,17,22,135,40,25,20,311,31,09,19,159,25,20,08,346,34*7C
$GPRMC,225710.068,A,5002.42636,N,04502.36796,E,10.00,32.1,140411,0.0,E*59
$GPGLL,5002.42636,N,04502.36796,E,225710.068,A*35
$GPGGA,225710.068,5002.42636,N,04502.36796,E,1,5,0.0,0.0,M,0.0,M,,*58
$GPVTG,32.1,T,32.1,M,10.00,N,18.52,K*41
$GPRMC,225711.069,A,5002.42873,N,04502.37026,E,10.00,32.1,140411,0.0,E*5B
$GPGLL,5002.42873,N,04502.37026,E,225711.069,A*37
$GPGGA,225711.069,5002.42873,N,04502.37026,E,1,5,0.0,0.0,M,0.0,M,,*5A
$GPVTG,32.1,T,32.1,M,10.00,N,18.52,K*41
